{"type":"FeatureCollection","features":[{"type":"Feature","properties":{"nombre":"La argentina manuscrita","url":"http://hdlab.space/La-Argentina-Manuscrita/","origen":"Buenos Aires, Argentina","idioma":"es","licencia":"CC BY 4.0","tipo_proyecto":"Edición digital, Georeferenciación y anotación semántica","equipo":"","tema":""},"geometry":{"type":"Point","coordinates":[-58.4370894,-34.6075682]}},{"type":"Feature","properties":{"nombre":"Family Letters","url":"https://familyletters.unl.edu/en/","origen":"Lincoln, Nebraska","idioma":"es, en","licencia":"CC BY-NC-SA 3.0","tipo_proyecto":"Edición digital, Georeferenciación y base de datos","equipo":"","tema":""},"geometry":{"type":"Point","coordinates":[-96.7077751,40.8088861]}},{"type":"Feature","properties":{"marker-color":"#7e7e7e","marker-size":"medium","marker-symbol":"","nombre":"Digital Nollywood","url":"https://digitalnollywood.ku.edu/","origen":"Nigeria","idioma":"en, yo","licencia":"None","tipo_proyecto":"Base de datos, imágenes","equipo":"","tema":""},"geometry":{"type":"Point","coordinates":[7.9999721,9.6000359]}},{"type":"Feature","properties":{"nombre":"Asian Shakespeare Intercultural Archive","url":"http://a-s-i-a-web.org/en/home.php","origen":"Singapur","idioma":"en, cn, jp, kr","licencia":"Copyright 2015","tipo_proyecto":"Base de datos, videos, texto","equipo":"","tema":""},"geometry":{"type":"Point","coordinates":[103.8194992,1.357107]}},{"type":"Feature","properties":{"nombre":"Patristic Text Archive","url":"https://pta.bbaw.de/pta/","origen":"Berlín, Alemania","idioma":"en, la, de","licencia":"CC-BY-SA","tipo_proyecto":"Base de datos, TEI, Texto","equipo":"","tema":""},"geometry":{"type":"Point","coordinates":[13.3888599,52.5170365]}},{"type":"Feature","properties":{"nombre":"Intercambios Oceánicos","url":"https://intercambiosoceanicos.iib.unam.mx/","origen":"Ciudad de México","idioma":"es","licencia":"CC BY-NC-SA 4.0","tipo_proyecto":"Periódicos, herramientas lingüísticas","equipo":"","tema":""},"geometry":{"type":"Point","coordinates":[-99.1331785,19.4326296]}},{"type":"Feature","properties":{"nombre":"Digging in to Early Colonial Mexico ","url":"https://www.lancaster.ac.uk/digging-ecm","origen":"Lancaster, Lancashire, England","idioma":"en, es","licencia":"Copyright U de Lancaster","tipo_proyecto":"Corpus, Text Mining, Natural Language Processing, Machine Learning y Geographic Information Systems","equipo":"","tema":""},"geometry":{"type":"Point","coordinates":[-2.7990345,54.0484068]}},{"type":"Feature","properties":{"nombre":"CEISMIC. Digital Archive of the Canterbury earthquakes","url":"http://www.ceismic.org.nz","origen":"Christchurch, New Zealand","idioma":"en","licencia":"Copyright Universidad de Canterbury","tipo_proyecto":"Archivo digital, imágenes, texto, audio, video","equipo":"","tema":""},"geometry":{"type":"Point","coordinates":[172.6366455,-43.530955]}},{"type":"Feature","properties":{"nombre":"Sefaria","url":"https://www.sefaria.org","origen":"Israel","idioma":"en, he","licencia":"None","tipo_proyecto":"Base de datos, textos, traducciones y comentarios","equipo":"","tema":""},"geometry":{"type":"Point","coordinates":[34.8667654,31.5313113]}},{"type":"Feature","properties":{"nombre":"Biblioteca Digital de Humanidades","url":"https://www.uv.mx/bdh/","origen":"Veracruz, Mexico","idioma":"es","licencia":"Copyright Universidad Veracruzana","tipo_proyecto":"Biblioteca digital","equipo":"","tema":""},"geometry":{"type":"Point","coordinates":[-96.666667,19.333333]}},{"type":"Feature","properties":{"nombre":"Script Encoding Initiative","url":"http://linguistics.berkeley.edu/~dwanders/","origen":"Berkeley, CA","idioma":"","licencia":"","tipo_proyecto":"","equipo":"","tema":""},"geometry":{"type":"Point","coordinates":[-122.23963364918777,37.8753497]}},{"type":"Feature","properties":{"nombre":"Mark Twain Project Online","url":"http://www.marktwainproject.org/","origen":"Berkeley, CA","idioma":"","licencia":"","tipo_proyecto":"Outside a center and within a library, with no faculty affiliates; all staff are equal participants, therefore, with none serving in \"support\" capacity. We also employ students, so far primarily from UCB's English dept.","equipo":"Mark Twain Papers & Project, The Bancroft Library, UC Berkeley","tema":""},"geometry":{"type":"Point","coordinates":[-122.23963364918777,37.8753497]}},{"type":"Feature","properties":{"nombre":"","url":"http://metalab.harvard.edu/","origen":"Cambridge, MA","idioma":"","licencia":"","tipo_proyecto":"","equipo":"MetaLab","tema":""},"geometry":{"type":"Point","coordinates":[0.1186637,52.2055314]}},{"type":"Feature","properties":{"nombre":"Implementing New Knowledge Environments","url":"http://inke.ca/","origen":"Canada, U.S., England (more?)","idioma":"","licencia":"","tipo_proyecto":"","equipo":"","tema":""},"geometry":{"type":"Point","coordinates":[-107.991707,61.0666922]}},{"type":"Feature","properties":{"nombre":"","url":"http://www.nines.org/","origen":"Charlottesville, VA","idioma":"","licencia":"","tipo_proyecto":"","equipo":"NINES","tema":""},"geometry":{"type":"Point","coordinates":[-78.4766781,38.029306]}},{"type":"Feature","properties":{"nombre":"Haiti Lab","url":"http://www.fhi.duke.edu/labs/haiti-lab","origen":"Durham, NC","idioma":"","licencia":"","tipo_proyecto":"The lab merges research, education, and practical applications of innovative thinking for Haiti's disaster recovery and for the expansion of Haitian studies in the U.S. and Haiti. ","equipo":"Duke Franklin Humanities Institute","tema":"Haiti and the Diaspora"},"geometry":{"type":"Point","coordinates":[-78.9018053,35.996653]}},{"type":"Feature","properties":{"nombre":"","url":"http://www2.matrix.msu.edu/ ","origen":"E. Lansing, MI","idioma":"","licencia":"","tipo_proyecto":"(one of their foci is digital work \"in and about Africa\") http://bit.ly/VQnDr9","equipo":"Matrix","tema":""},"geometry":{"type":"Point","coordinates":[-84.4721678,42.7320307]}},{"type":"Feature","properties":{"nombre":"","url":"http://chi.anthropology.msu.edu","origen":"East Lansing, MI","idioma":"","licencia":"","tipo_proyecto":"Cultural Heritage Informatics Grad Fellowship (http://chi.anthropology.msu.edu/fellowships/) & Cultural Heritage Informatics Fieldschool (http://chi.anthropology.msu.edu/fieldschool/)","equipo":"Cultural Heritage Informatics Initiative","tema":""},"geometry":{"type":"Point","coordinates":[-84.4721678,42.7320307]}},{"type":"Feature","properties":{"nombre":"","url":"http://chnm.gmu.edu/","origen":"Fairfax, VA","idioma":"","licencia":"","tipo_proyecto":"The CHNM uses digital media and computer technology to democratize history—to incorporate multiple voices, reach diverse audiences, and encourage popular participation in presenting and preserving the past.","equipo":"CHNM","tema":""},"geometry":{"type":"Point","coordinates":[-77.3063733,38.8462236]}},{"type":"Feature","properties":{"nombre":"Medieval Electronic Scholarly Alliance (MESA)","url":"http://www.dlib.indiana.edu/projects/mesa/","origen":"Indiana.edu","idioma":"","licencia":"","tipo_proyecto":"MESA aims at the creation of a meta-search for medieval materials","equipo":"Dot Porter, Tim Stinson","tema":"medieval meta search"},"geometry":{"type":"Point","coordinates":[-86.1746933,40.3270127]}},{"type":"Feature","properties":{"nombre":"","url":"http://cdrh.unl.edu/","origen":"Lincoln, NE","idioma":"","licencia":"","tipo_proyecto":"","equipo":"CDRH","tema":""},"geometry":{"type":"Point","coordinates":[-96.7077751,40.8088861]}},{"type":"Feature","properties":{"nombre":"The Walt Whitman Archive","url":"http://whitmanarchive.org","origen":"Lincoln, NE","idioma":"","licencia":"","tipo_proyecto":"","equipo":"CDRH","tema":""},"geometry":{"type":"Point","coordinates":[-96.7077751,40.8088861]}},{"type":"Feature","properties":{"nombre":"The Willa Cather Archive","url":"http://cather.unl.edu","origen":"Lincoln, NE","idioma":"","licencia":"","tipo_proyecto":"","equipo":"CDRH","tema":""},"geometry":{"type":"Point","coordinates":[-96.7077751,40.8088861]}},{"type":"Feature","properties":{"nombre":"Railroads and the Making of Modern America","url":"http://railroads.unl.edu/","origen":"Lincoln, NE","idioma":"","licencia":"","tipo_proyecto":"","equipo":"CDRH","tema":""},"geometry":{"type":"Point","coordinates":[-96.7077751,40.8088861]}},{"type":"Feature","properties":{"nombre":"The William F. Cody Archive","url":"http://codyarchive.org/","origen":"Lincoln, NE","idioma":"","licencia":"","tipo_proyecto":"","equipo":"CDRH","tema":""},"geometry":{"type":"Point","coordinates":[-96.7077751,40.8088861]}},{"type":"Feature","properties":{"nombre":"The History Harvest","url":"http://historyharvest.unl.edu/","origen":"Lincoln, NE","idioma":"","licencia":"","tipo_proyecto":"","equipo":"CDRH","tema":""},"geometry":{"type":"Point","coordinates":[-96.7077751,40.8088861]}},{"type":"Feature","properties":{"nombre":"Civil War Washington","url":"http://civilwardc.org/","origen":"Lincoln, NE","idioma":"","licencia":"","tipo_proyecto":"","equipo":"CDRH","tema":""},"geometry":{"type":"Point","coordinates":[-96.7077751,40.8088861]}},{"type":"Feature","properties":{"nombre":"Hispanic Baroque","url":"http://cultureplex.ca","origen":"London,ON","idioma":"","licencia":"","tipo_proyecto":"","equipo":"CulturePlexLab","tema":"Transatlantic Hispanic Baroque, cultural complexity,"},"geometry":{"type":"Point","coordinates":[-81.243372,42.9832406]}},{"type":"Feature","properties":{"nombre":"Voyant Tools","url":"http://voyant-tools.org/","origen":"Montreal, QC","idioma":"","licencia":"","tipo_proyecto":"","equipo":"","tema":""},"geometry":{"type":"Point","coordinates":[-73.5698065,45.5031824]}},{"type":"Feature","properties":{"nombre":"CUNY Academic Commons","url":"http://commons.gc.cuny.edu/","origen":"New York, NY","idioma":"","licencia":"","tipo_proyecto":"","equipo":"","tema":""},"geometry":{"type":"Point","coordinates":[-74.0060152,40.7127281]}},{"type":"Feature","properties":{"nombre":"DH Box","url":"http://dhbox.org","origen":"New York, NY","idioma":"","licencia":"","tipo_proyecto":"Maintained by Stephen Zweibel (@stevezweibel); Jekyll website by Harlan Kellaway (@DigiHumanatee)","equipo":"","tema":""},"geometry":{"type":"Point","coordinates":[-74.0060152,40.7127281]}},{"type":"Feature","properties":{"nombre":"","url":"http://cesta.stanford.edu","origen":"Stanford, CA","idioma":"","licencia":"","tipo_proyecto":"","equipo":"CESTA","tema":""},"geometry":{"type":"Point","coordinates":[-122.17029258409187,37.426540700000004]}},{"type":"Feature","properties":{"nombre":"","url":"http://hastac.org/","origen":"USA","idioma":"","licencia":"","tipo_proyecto":"","equipo":"HASTAC","tema":""},"geometry":{"type":"Point","coordinates":[-100.445882,39.7837304]}},{"type":"Feature","properties":{"nombre":"","url":"http://mvp.uvic.ca/","origen":"Victoria, BC","idioma":"","licencia":"","tipo_proyecto":"","equipo":"Modernist Versions Project","tema":""},"geometry":{"type":"Point","coordinates":[-123.3649533,48.4283182]}},{"type":"Feature","properties":{"nombre":"","url":"http://etcl.uvic.ca/","origen":"Victoria, BC","idioma":"","licencia":"","tipo_proyecto":"","equipo":"Electronic Textual Cultures Lab","tema":""},"geometry":{"type":"Point","coordinates":[-123.3649533,48.4283182]}},{"type":"Feature","properties":{"nombre":"","url":"http://hcmc.uvic.ca/","origen":"Victoria, BC","idioma":"","licencia":"","tipo_proyecto":"","equipo":"Humanities Computing and Media Centre","tema":""},"geometry":{"type":"Point","coordinates":[-123.3649533,48.4283182]}},{"type":"Feature","properties":{"nombre":"The Map of Early Modern London","url":"http://mapoflondon.uvic.ca/","origen":"Victoria, BC","idioma":"","licencia":"","tipo_proyecto":"","equipo":"","tema":""},"geometry":{"type":"Point","coordinates":[-123.3649533,48.4283182]}},{"type":"Feature","properties":{"nombre":"","url":"http://maker.uvic.ca/","origen":"Victoria, BC","idioma":"","licencia":"","tipo_proyecto":"our website launches this month :) ","equipo":"Maker Lab in the Humanities ","tema":""},"geometry":{"type":"Point","coordinates":[-123.3649533,48.4283182]}},{"type":"Feature","properties":{"nombre":"Early English Broadside Archive","url":"http://ebba.english.ucsb.edu/","origen":"Santa Barbara, CA","idioma":"","licencia":"","tipo_proyecto":"To this end, in May 2003, EBBA set its sights first on digitizing the largest extant collection of English broadside ballads published in the 17th century: the five volumes of ballads collected by Samuel Pepys held at Magdalene College, Cambridge. With seed monies and then more substantial funding, the full archiving of the Pepys Collection of over 1,800 ballads is now complete. We have also archived the second largest collection of English 17th century black-letter ballads: the four volumes (in five books) of Roxburghe Ballads held at the British Library, London. Some 1,500 broadside ballads are included in the Roxburghe Collection. Other collections we have also archived include the Euing collection of 408 black-letter ballads held at the University of Glasgow as well as the approximately 600 early broadside ballads at the Huntington Library in Pasadena (including the many broadside ballads collected in the 17th century by Narcissus Luttrell and later bound in what is known as the Bindley collection, the invaluable Britwell collection of some 90 loose black-letter ballads of the 16th century, and many other bound and loose sheets not in named collections). We are currently archiving the Crawford collection from the National Library of Scotland, Edinburgh.","equipo":"Patricia Fumerton, Carl Stahmer, et al","tema":"Early Modern England"},"geometry":{"type":"Point","coordinates":[-119.7026673,34.4221319]}},{"type":"Feature","properties":{"nombre":"Driving Through Time: The Digital Blue Ridge Parkway","url":"http://docsouth.unc.edu/blueridgeparkway/","origen":"Chapel Hill, NC","idioma":"","licencia":"","tipo_proyecto":"\"Driving Through Time\" brings together for the first time a vast array of primary source materials documenting the history of the National Park Service's Blue Ridge Parkway from the 1930s to the present. Over 8000 historic photographs, maps, newspapers, oral histories, and other documents are included, the majority coming from the Blue Ridge Parkway archives and North Carolina State Archives.  All materials are searchable by keyword and geographic location. Dozens of historic maps have been georectified with \"overlay\" views that allow seeing the Parkway past and present together on a map.  Interpretive essays provide context for the collection.","equipo":"Anne Whisnant, Natasha Smith, Tim Shearer, Mike Millner, University of North Carolina Libraries","tema":"Appalachian history; North Carolina, Virginia; National Parks"},"geometry":{"type":"Point","coordinates":[-79.05578,35.9131542]}},{"type":"Feature","properties":{"nombre":"DIY History","url":"http://diyhistory.lib.uiowa.edu/","origen":"Iowa City, IA","idioma":"","licencia":"","tipo_proyecto":"","equipo":"Digital Research and Publishing, U of I Libraries","tema":""},"geometry":{"type":"Point","coordinates":[-91.5299106,41.6612561]}},{"type":"Feature","properties":{"nombre":"Uncle Dale's Old Mormon Newspaper Articles","url":"http://www.sidneyrigdon.com/dbroadhu/","origen":"Hilo, Hawaii","idioma":"","licencia":"","tipo_proyecto":"Prof. Broadhurst began working on this DH project in the late 1990s, using OCR to transcribe 19th-century manuscripts and newspaper articles related to the history of American Mormonism. Broadhurst was an early recruiter of collaborative history volunteers to transcribe and annotate many of the articles. He's assembled one of the largest archives of American Mormon primary sources that is not controlled by the LDS Church. This website is enormously important to historians of U.S. religion, and steps should be taken to preserve it for the long term.","equipo":"Prof. Dale Broadhurst, Independent Linguistics & Mormonism Scholar","tema":"Northeast; Midwest; Utah; Mormon Exodus"},"geometry":{"type":"Point","coordinates":[-155.08158,19.7073734]}},{"type":"Feature","properties":{"nombre":"Chinese language based DH work, including large archives and analysis tools","url":"http://www.digital.ntu.edu.tw","origen":"Taipei, Taiwan","idioma":"","licencia":"","tipo_proyecto":"","equipo":"Research Center for Digital Humanites, National Taiwan University","tema":""},"geometry":{"type":"Point","coordinates":[121.5636796,25.0375198]}},{"type":"Feature","properties":{"nombre":"Tripitaka Koreana Knowledgebase","url":"http://kb.sutra.re.kr/ritk_eng/index.do","origen":"Seoul, S. Korea","idioma":"","licencia":"","tipo_proyecto":"","equipo":"","tema":"Korea"},"geometry":{"type":"Point","coordinates":[126.9782914,37.5666791]}},{"type":"Feature","properties":{"nombre":"ASIAN ICONOGRAPHIC RESOURCES ","url":"http://air.w3.kanazawa-u.ac.jp/","origen":"Kanazawa, Japan","idioma":"","licencia":"","tipo_proyecto":"Resources are taken from various parts in Asia.","equipo":"","tema":"South Asia, Southeast Asia, Central Asia"},"geometry":{"type":"Point","coordinates":[136.6480247,36.5780499]}},{"type":"Feature","properties":{"nombre":"Game Archive Project","url":"http://www.rcgs.jp/","origen":"Kyoto, Japan","idioma":"","licencia":"","tipo_proyecto":"Archiving Japanese games. They also have a ","equipo":"Ritsumeikan Center for Game Studies","tema":"Kyoto, Game Studies, Emulators"},"geometry":{"type":"Point","coordinates":[135.7556075,35.021041]}},{"type":"Feature","properties":{"nombre":"Digital Silk Road project","url":"http://dsr.nii.ac.jp/index.html.en","origen":"Tokyo, Japan","idioma":"","licencia":"","tipo_proyecto":"This project collects mainly central Asian resources.","equipo":"National Institute of Informatics","tema":"Central Asia"},"geometry":{"type":"Point","coordinates":[139.7594549,35.6828387]}},{"type":"Feature","properties":{"nombre":"Grammatological Informatics based on Corpora of Asian Scripts project","url":"http://www.gicas.jp/about_gicas_e.html","origen":"Tokyo, Japan","idioma":"","licencia":"","tipo_proyecto":"","equipo":"Research Institute for Languages and Cultures of Asia and Africa, Tokyo University of Foreign Studies","tema":"South Asia, Southeast Asia, Central Asia, Africa"},"geometry":{"type":"Point","coordinates":[139.7594549,35.6828387]}},{"type":"Feature","properties":{"nombre":"Center for Informatics in East Asian Studies","url":"http://www.kita.zinbun.kyoto-u.ac.jp/database/","origen":"Kyoto, Japan","idioma":"","licencia":"","tipo_proyecto":"It includes mainly Chinese cultural databases introduced by Japanese.","equipo":"","tema":"China"},"geometry":{"type":"Point","coordinates":[135.7556075,35.021041]}},{"type":"Feature","properties":{"nombre":"National Muesum of Ethnology","url":"http://htq.minpaku.ac.jp/menu/database_eng.html","origen":"Osaka, Japan","idioma":"","licencia":"","tipo_proyecto":"Many projects of digitized ethnological resources from various parts in the world","equipo":"","tema":"Global ethnological resources"},"geometry":{"type":"Point","coordinates":[135.490357,34.6198813]}},{"type":"Feature","properties":{"nombre":"Japanese Woodblock Print Database","url":"http://ukiyo-e.org/","origen":"Japan","idioma":"","licencia":"","tipo_proyecto":"A comprehensive database of Japanese Woodblock Prints (Ukiyo-e) in both English and Japanese.","equipo":"John Resig","tema":"Japan"},"geometry":{"type":"Point","coordinates":[139.2394179,36.5748441]}},{"type":"Feature","properties":{"nombre":"Center for Evolving Humanities","url":"http://21dzk.l.u-tokyo.ac.jp/CEH/index.php?English%20FrontPage","origen":"Japan","idioma":"","licencia":"","tipo_proyecto":"","equipo":"","tema":"Asia"},"geometry":{"type":"Point","coordinates":[139.2394179,36.5748441]}},{"type":"Feature","properties":{"nombre":"Nara National Research Institute for Cultural Properties","url":"http://www.nabunken.go.jp/english/database.html","origen":"Japan","idioma":"","licencia":"","tipo_proyecto":"","equipo":"","tema":"Japan"},"geometry":{"type":"Point","coordinates":[139.2394179,36.5748441]}},{"type":"Feature","properties":{"nombre":"The Humanities GIS Reseach Group","url":"http://www.h-gis.org/index.html","origen":"Japan","idioma":"","licencia":"","tipo_proyecto":"","equipo":"","tema":"Japan"},"geometry":{"type":"Point","coordinates":[139.2394179,36.5748441]}},{"type":"Feature","properties":{"nombre":"Korea Biographical Database","url":"http://people.aks.ac.kr/","origen":"Seoul, Korea","idioma":"","licencia":"","tipo_proyecto":"","equipo":"The Academy of Korean Studies","tema":"Korea"},"geometry":{"type":"Point","coordinates":[126.9782914,37.5666791]}},{"type":"Feature","properties":{"nombre":"The Annals of the Choson Dynasty","url":"http://sillok.history.go.kr/main/main.jsp","origen":"Seoul, Korea","idioma":"","licencia":"","tipo_proyecto":"","equipo":"National Institute of Korean History","tema":"Korea"},"geometry":{"type":"Point","coordinates":[126.9782914,37.5666791]}},{"type":"Feature","properties":{"nombre":"The Korean History DB","url":"http://db.history.go.kr/","origen":"Seoul, Korea","idioma":"","licencia":"","tipo_proyecto":"","equipo":"National Institute of Korean History","tema":"Korea"},"geometry":{"type":"Point","coordinates":[126.9782914,37.5666791]}},{"type":"Feature","properties":{"nombre":"Korea Grand Culture DB","url":"http://www.grandculture.net/","origen":"Seoul, Korea","idioma":"","licencia":"","tipo_proyecto":"","equipo":"The Academy of Korean Studies","tema":"Korea"},"geometry":{"type":"Point","coordinates":[126.9782914,37.5666791]}},{"type":"Feature","properties":{"nombre":"Jangseogak Royal Archives","url":"http://yoksa.aks.ac.kr/","origen":"Seoul, Korea","idioma":"","licencia":"","tipo_proyecto":"","equipo":"The Academy of Korean Studies","tema":"Korea"},"geometry":{"type":"Point","coordinates":[126.9782914,37.5666791]}},{"type":"Feature","properties":{"nombre":"Global Shakespeares","url":"http://globalshakespeares.org/","origen":"Cambridge, Massachusetts","idioma":"","licencia":"","tipo_proyecto":"","equipo":"George Washington University and MIT","tema":"USA"},"geometry":{"type":"Point","coordinates":[-71.1056157,42.3750997]}},{"type":"Feature","properties":{"nombre":"The International Dunhuang Project: The Silk Road Online","url":"http://idp.bl.uk/","origen":"Eastern Silk Road","idioma":"","licencia":"","tipo_proyecto":"this a truly transnational project which depends on international co-operation to make information\r\n and images of all manuscripts, paintings, textiles and artefacts from Dunhuang and archaeological sites of the Eastern Silk Road freely available on the Internet and to encourage their use through educational\r\n and research programmes -- Dagmar Riedel","equipo":"the website is at the British Library which coordinates the collaboration cf. http://idp.bl.uk/pages/about.a4d","tema":"British Library"},"geometry":{"type":"Point","coordinates":[-75.63588594228253,45.42572095]}},{"type":"Feature","properties":{"nombre":"Digging into Early Colonial Mexico","url":"http://www.lancaster.ac.uk/digging-ecm","origen":"UK, Portugal, Mexico","idioma":"","licencia":"","tipo_proyecto":"This is a Spatial Humanities project developing Big Data approaches for the analysis of 16th century colonial documents. We are focusing particularly on the Geographic Relations of New Spain and we are combining techniques from different disciplines, including Corpus Linguistics, Text Mining, Natural Language Processing, Machine Learning, and Geographic Information Systems. The aim is to address questions related to the recording of information about indigenous cultures, the Spanish exploration of indigenous social and religious concepts, the appropriation and ideas about place and space in the indigenous world, and their attitudes towards politics and economy.","equipo":"Lancaster University, University of Lisbon, Museo del Templo Mayor","tema":"Mexico and Central America"},"geometry":{"type":"Point","coordinates":[-3.2765753,54.7023545]}},{"type":"Feature","properties":{"nombre":"Haiti: An Island Luminous (online exhibit, archive, and scholarly edited collection in dLOC)","url":"http://dloc.com/exhibits/islandluminous","origen":"Florida, USA, Haiti, USA various, France, etc.","idioma":"","licencia":"","tipo_proyecto":"An Island Luminous is a site to help readers learn about Haiti’s history. Created by historian Adam M. Silvia and hosted online by Digital Library of the Caribbean, An Island Luminous combines rare books, manuscripts, and photos scanned by archives and libraries in Haiti and the United States with commentary by over one hundred (100) authors from universities around the world.","equipo":"See http://islandluminous.fiu.edu/contributors1.htm","tema":"Haiti"},"geometry":{"type":"Point","coordinates":[-81.4639835,27.7567667]}},{"type":"Feature","properties":{"nombre":"About Face, Online Exhibit and Archive in dLOC","url":"http://dloc.com/exhibits/aboutface/","origen":"Jamaica, UK, USA","idioma":"","licencia":"","tipo_proyecto":"About Face revisits Jamaica's first exhibition to tour Europe after gaining independence in 1962. Use this site to view its images, review the original catalogue and understand the context of Face of Jamaica almost fifty years ago.Face of Jamaica toured Europe for nine months between 1963 and 1964 and it was never viewed in Jamaica. Almost fifty years later, the exhibition About Face: Revisiting Jamaica's First Exhibition in Europe reconsiders that touring show by collating and re-presenting its art and related materials online.","equipo":"Claudia Hucke, Petrine Archer, Lourdes Santamaria-Wheeler","tema":"Jamaica"},"geometry":{"type":"Point","coordinates":[-77.3947693,18.1850507]}},{"type":"Feature","properties":{"nombre":"I ♥ E-Poetry","url":"http://leonardoflores.net/","origen":"Puerto Rico","idioma":"","licencia":"","tipo_proyecto":"In continuous daily publication since December 2011, this scholarly blog reviews electronic poetry, providing literary, computational, and cultural contexts for readers new to this emergent literary form. With over 400 entries and 19,000 pageviews to date, this project has been nominated for the DH Awards 2012 (http://dhawards.org/dhawards2012/voting/).","equipo":"Leonardo Flores","tema":"International scope"},"geometry":{"type":"Point","coordinates":[-66.26152219418967,18.19897685]}},{"type":"Feature","properties":{"nombre":"","url":"http://www.casadelasamericas.org/","origen":"Havana, Cuba","idioma":"","licencia":"","tipo_proyecto":"","equipo":"Casa de las Americas","tema":""},"geometry":{"type":"Point","coordinates":[-82.3589631,23.135305]}},{"type":"Feature","properties":{"nombre":"","url":"http://www.humanidadesdigitales.net/","origen":"Mexico","idioma":"","licencia":"","tipo_proyecto":"Nuestros objetivos son promover y fortalecer la investigación humanística y el cómputo, con especial énfasis en la investigación y educación en países de habla hispana. La RedHD apoya la comunicación entre los humanistas digitales de la región, la formación de recursos humanos, la elaboración de documentación y buenas prácticas, la promoción de los proyectos de HD, la difusión de eventos relacionados así como el impulso y reconocimiento del campo. Adicionalmente promueve proyectos e iniciativas regionales a nivel internacional.\r\nThe RedHD seeks to promote and support Digital Humanities with special emphasis on research and teaching in Spanish speaking countries. The RedHD supports communication between digital humanists of the region, human resource formation, documentation and good practice, the dissemination of DH projects as well as the promotion of events related to the recognition of the field. Additionally we hope to promote local and regional projects at an international level.\r\n\r\n","equipo":"RedHD","tema":"Mexico; Latin America; International"},"geometry":{"type":"Point","coordinates":[-102.0077097,23.6585116]}},{"type":"Feature","properties":{"nombre":"Proyecto Afrolatin@ / The Afrolatin@ Project","url":"http://afrolatinoproject.org/ ","origen":"Panama, New York","idioma":"","licencia":"","tipo_proyecto":"We are 1) collecting oral history narratives from throughout the Afrodescendant diaspora, 2) compiling a searchable digital reference bibliography, 3) working to introduce ICT and DH to the Afrolatin@ community in the diaspora as a way to facilitate digital citizenship, development & education. Using digital tools we intend to curate, digitize and preserve the seldom told story of Afrolatin@s in official histories of Latin American & Caribbean countries","equipo":"Proyecto Afrolatino","tema":"Latin America and Caribbean"},"geometry":{"type":"Point","coordinates":[-79.483105,42.075056]}},{"type":"Feature","properties":{"nombre":"Biblioteca Digital de Humanidades ","url":"http://www.uv.mx/bdh/","origen":"Mexico","idioma":"","licencia":"","tipo_proyecto":"La BDH es un proyecto editorial digital en la modalidad de acceso abierto, de la Dirección General del Área de Humanidades de la Universidad Veracruzana","equipo":"Universidad Veracruzana","tema":""},"geometry":{"type":"Point","coordinates":[-102.0077097,23.6585116]}},{"type":"Feature","properties":{"nombre":"","url":"http://www.uninorte.edu.co/web/biblioteca","origen":"Barranquilla, Colombia","idioma":"","licencia":"","tipo_proyecto":"","equipo":"Biblioteca Karl C. Parrish ","tema":""},"geometry":{"type":"Point","coordinates":[-74.7988827,10.9810761]}},{"type":"Feature","properties":{"nombre":"La Biblioteca Virtual de la Biblioteca Luis Ángel Arango","url":"http://www.banrepcultural.org/blaavirtual/indice","origen":"Colombia","idioma":"","licencia":"","tipo_proyecto":"","equipo":"","tema":""},"geometry":{"type":"Point","coordinates":[-72.9088133,4.099917]}},{"type":"Feature","properties":{"nombre":"Herencia MIA, Catalogo de Cerámicas","url":"http://www.erigaie.org/","origen":"Colombia","idioma":"","licencia":"","tipo_proyecto":"Fundacion Erigaie is a non-profit research organization on cultural heritage, where professional from anthropology, history and archeology work together. We have been working with our own-designed databases since 2005, and we have explored different platforms mostly for research teams. Recently, we have created two online collections: one for archeological pieces and the other for cultural expression from differents sites in our country.","equipo":"Fundación Erigaie","tema":"Cultural Heritage, Arqueology, Urban History"},"geometry":{"type":"Point","coordinates":[-72.9088133,4.099917]}},{"type":"Feature","properties":{"nombre":"DLoC","url":"http://www.dloc.com/","origen":"Florida, USA","idioma":"","licencia":"","tipo_proyecto":"The Digital Library of the Caribbean (dLOC) is a cooperative digital library for resources from and about the Caribbean and circum-Caribbean. dLOC provides access to digitized versions of Caribbean cultural, historical and research materials currently held in archives, libraries, and private collections. dLOC's partners collaborate on preservation and access of existing analog and born-digital materials, as well as the creation of new works and scholarship.","equipo":"","tema":"Caribbean"},"geometry":{"type":"Point","coordinates":[-81.4639835,27.7567667]}},{"type":"Feature","properties":{"nombre":"Ecclesiastical and Secular Sources for Slave Societies","url":"https://slavesocieties.org/","origen":"Vanderbilt University, Nashville, TN, USA","idioma":"","licencia":"","tipo_proyecto":"The ESSSS project, directed by Jane Landers and administered at Vanderbilt University, digitally preserves endangered ecclesiastical and secular documents related to Africans and Afro-descended peoples in the Americas. Other non-European groups, such as Chinese and indigenous groups are also represented.  This website provides information about the project and its history and tools that allow researchers to search the ESSSS database containing nearly 300,000 documents from diverse archives in four countries. While most of the documents contained here belong to the eighteenth and nineteenth centuries, there are also Cuban and Spanish Florida documents from the sixteenth century and Brazilian documents from the seventeenth.\r\n","equipo":"Vanderbilt University Dept. of History, Ctr for Latin American Studies, Jean and Alexander Heard Library, Vanderbilt Special Collections","tema":"Brazil; Cuba; Colombia; Spanish Florida"},"geometry":{"type":"Point","coordinates":[-86.80281889095295,36.14380105]}},{"type":"Feature","properties":{"nombre":"Latin American Public Opinion Project (LAPOP)","url":"http://www.vanderbilt.edu/lapop/","origen":"Vanderbilt University, Nashville, TN, USA","idioma":"","licencia":"","tipo_proyecto":"The Latin American Public Opinion Project (LAPOP), initiated over two decades ago by Mitchell A. Seligson (LAPOP founder and currently Senior Advisor) and directed by Elizabeth J. Zechmeister, is hosted by Vanderbilt University. LAPOP began with the study of democratic values in one country, Costa Rica, at a time when much of the rest of Latin America was caught in the grip of repressive regimes that widely prohibited studies of public opinion (and systematically violated human rights and civil liberties). Today, fortunately, such studies can be carried out openly and freely in virtually all countries in the region.","equipo":"","tema":""},"geometry":{"type":"Point","coordinates":[-86.80281889095295,36.14380105]}},{"type":"Feature","properties":{"nombre":"Asociación Argentina de Humanidades Digitales ","url":"http://aahd.com.ar/","origen":"Buenos Aires, Argentina","idioma":"","licencia":"","tipo_proyecto":"La Asociación Argentina de Humanidades Digitales (AAHD) es una comunidad abierta cuyo objetivo es promover la investigación, transmisión y difusión del conocimiento en el campo de las Humanidades Digitales, tendiendo puentes entre distintas disciplinas y líneas de investigación.","equipo":"","tema":"Bs.As. Argentina"},"geometry":{"type":"Point","coordinates":[-58.4370894,-34.6075682]}},{"type":"Feature","properties":{"nombre":"","url":"http://wp.lancs.ac.uk/dighum/","origen":"Lancaster, UK","idioma":"","licencia":"","tipo_proyecto":"Lancaster’s Digital Humanities Hub brings together internationally recognised centres of excellence in the spatial humanities, corpus linguistics and natural language processing (NLP), and combines these with broad expertise across the digital humanities as a whole.","equipo":"DH Lancaster","tema":""},"geometry":{"type":"Point","coordinates":[-2.7990345,54.0484068]}},{"type":"Feature","properties":{"nombre":"","url":"http://www.jisc.ac.uk/","origen":"Bristol/London, UK","idioma":"","licencia":"","tipo_proyecto":"JISC is a big funding group, with many strategic concerns Many of the digital resources they have funded are at http://www.jisc-content.ac.uk","equipo":"Jisc","tema":""},"geometry":{"type":"Point","coordinates":[-2.7596330000000013,51.48218145]}},{"type":"Feature","properties":{"nombre":"","url":"http://www.openedition.org/","origen":"Paris, France","idioma":"","licencia":"","tipo_proyecto":"","equipo":"OpenEditions","tema":""},"geometry":{"type":"Point","coordinates":[2.3200410217200766,48.8588897]}},{"type":"Feature","properties":{"nombre":"Darwin Online","url":"http://darwin-online.org.uk/","origen":"London, UK","idioma":"","licencia":"","tipo_proyecto":"","equipo":"","tema":""},"geometry":{"type":"Point","coordinates":[-0.1276474,51.5073219]}},{"type":"Feature","properties":{"nombre":"Living Books about LIfe","url":"http://livingbooksaboutlife.org/","origen":"UK","idioma":"","licencia":"","tipo_proyecto":"Experiment in Scientific Digital Publishing","equipo":"JISC / Open Humanities Press","tema":""},"geometry":{"type":"Point","coordinates":[-3.2765753,54.7023545]}},{"type":"Feature","properties":{"nombre":"CULTURA","url":"http://www.cultura-strep.eu","origen":"Dublin, Ireland","idioma":"","licencia":"","tipo_proyecto":"CULTURA is building the next generation of online cultural experience - guiding, assisting and supporting every user's interactions with Europe's cultural treasures. ","equipo":"","tema":"Europe"},"geometry":{"type":"Point","coordinates":[-6.2602732,53.3497645]}},{"type":"Feature","properties":{"nombre":"TransVis","url":"http://www.delightedbeauty.org/vvv/","origen":"Swansea, UK / Berlin, Germany / etc (worldwide collaborators)","idioma":"","licencia":"","tipo_proyecto":"New tools for working/playing with multiple differing versions of -- initially, experimentally -- Shakespeare in translations -- the principles have much broader applications ","equipo":"","tema":""},"geometry":{"type":"Point","coordinates":[-3.9459248,51.6195955]}},{"type":"Feature","properties":{"nombre":"ELMCIP","url":"http://elmcip.net/","origen":"Norway, Scotland, Sweden, Netherlands, Slovenia, Finland, England","idioma":"","licencia":"","tipo_proyecto":"ELMCIP is a 3-year (2010-2013) collaborative research project that involves 7 European research partners and 1 non-academic partner that investigate how creative communities of practitioners form within a transnational and transcultural context in a globalized and distributed communication environment.","equipo":"Scott Rettberg, Jill Walker Rettberg, et. al.","tema":"European Electronic Literature"},"geometry":{"type":"Point","coordinates":[9.0999715,60.5000209]}},{"type":"Feature","properties":{"nombre":"Banco de imágenes del Quijote: 1605-1915","url":"http://www.qbi2005.com/","origen":"Madrid, Spain","idioma":"","licencia":"","tipo_proyecto":"17063 images of Quixote's editions. ","equipo":"Centro de Estudios Cervantinos. Universidad Complutense de Madrid","tema":"Iconography, Quixote"},"geometry":{"type":"Point","coordinates":[-3.7035825,40.4167047]}},{"type":"Feature","properties":{"nombre":"Quijote interactivo","url":"http://quijote.bne.es/libro.html","origen":"Madrid, Spain","idioma":"","licencia":"","tipo_proyecto":"","equipo":"BNE","tema":"Edition, Quixote"},"geometry":{"type":"Point","coordinates":[-3.7035825,40.4167047]}},{"type":"Feature","properties":{"nombre":"The Medici Archive Project","url":"http://www.medici.org/","origen":"Florence, Italy","idioma":"","licencia":"","tipo_proyecto":"The Medici Archive Project is digitizing the the Medici Granducal Archival Collection (Mediceo del Principato) comprising over four-million letters distributed in 6,429 covering a chronological span of two hundred years (1537 to 1743)","equipo":"","tema":"Florence; Europe; International"},"geometry":{"type":"Point","coordinates":[11.2555757,43.7698712]}},{"type":"Feature","properties":{"nombre":"International Dunhuang Project","url":"http://idp.bl.uk/","origen":"London, UK","idioma":"","licencia":"","tipo_proyecto":"Including various countries globally","equipo":"","tema":""},"geometry":{"type":"Point","coordinates":[-0.1276474,51.5073219]}},{"type":"Feature","properties":{"nombre":"Hermenia: Literary Studies & Digital Technology Research Group","url":"http://www.hermeneia.net/","origen":"Barcelona, Spain","idioma":"","licencia":"","tipo_proyecto":"Presents research on the theoretical, practical, and social consequences of the relationship between literary studies and developing technologies","equipo":"","tema":"Europe and US"},"geometry":{"type":"Point","coordinates":[2.1774322,41.3828939]}},{"type":"Feature","properties":{"nombre":"Parnaseo","url":"http://parnaseo.uv.es/ ","origen":"Valencia, Spain","idioma":"","licencia":"","tipo_proyecto":"","equipo":"Universitat de València","tema":""},"geometry":{"type":"Point","coordinates":[-0.3763353,39.4697065]}},{"type":"Feature","properties":{"nombre":"Transliteracy","url":"http://nlabnetworks.typepad.com/transliteracy/","origen":"Leicester, UK","idioma":"","licencia":"","tipo_proyecto":"","equipo":"Sue Thomas, Demontfort U","tema":"Transmedia literacy"},"geometry":{"type":"Point","coordinates":[-1.1330789,52.6361398]}},{"type":"Feature","properties":{"nombre":"\"No Problem Has a Solution\": A Digital Archive of the Book of Disquiet","url":"http://matlit.wordpress.com/projectos/","origen":"Coimbra/Lisbon, Portugal","idioma":"","licencia":"","tipo_proyecto":"This is the first time (to my knowledge) that the Portuguese modernist writer Fernando Pessoa--known for inventing a series of heteronyms or literary \"split personalities\"--has been the subject of a DH project.","equipo":"University of Coimbra, Technical University of Lisbon","tema":"Producing a TEI-encoded, interactive edition of Fernando Pessoa's Book of Disquiet"},"geometry":{"type":"Point","coordinates":[-9.3417627,38.7970398]}},{"type":"Feature","properties":{"nombre":"The Book of the Dead","url":"http://totenbuch.awk.nrw.de/","origen":"Cologne/Bonn, Germany","idioma":"","licencia":"","tipo_proyecto":"","equipo":"Cologne Center for eHumanities (CCeH)","tema":"Egypt"},"geometry":{"type":"Point","coordinates":[7.138887378368084,50.86780115]}},{"type":"Feature","properties":{"nombre":"CATCOM. Las comedias y sus representantes: base de datos de comedias mencionadas en la documentación teatral (1540-1700)","url":"http://catcom.uv.es/","origen":"Valencia, Spain","idioma":"","licencia":"","tipo_proyecto":"The objective of project CATCOM is to collect, classify and critically analyze the information on titles of plays that appear in Spanish theatrical documentation, and make it available to researchers in the form of a database. This database will allow users to access a calendar of performances, offers information on these performances (name of the company who performed to play, town where it took place, type of theatrical space where it was performed), locates titles and relates them to alternative titles of the same play and adaptations, and offers a state of the question on their authorship. CATCOM is part of a multi-project titled \"TC/12. Patrimonio teatral clásico español. Textos e instrimentos de investigación\" (http://tc12.uv.es/).","equipo":"Grupo de investigación DICAT","tema":"Spain: Calendar of Early Modern Spanish theatrical performances"},"geometry":{"type":"Point","coordinates":[-0.3763353,39.4697065]}},{"type":"Feature","properties":{"nombre":"Pegasus Data Project","url":"http://www.pegasusdata.com","origen":"Lausanne (Switzerland)","idioma":"","licencia":"","tipo_proyecto":"","equipo":"Yannick Rochat (EPFL), Martin Grandjean (UNIL)","tema":"Worldwide"},"geometry":{"type":"Point","coordinates":[6.6327025,46.5218269]}},{"type":"Feature","properties":{"nombre":"DECIPHER","url":"http://decipher-research.eu/","origen":"Dublin, Ireland","idioma":"","licencia":"","tipo_proyecto":"It aims to support the discovery and exploration of cultural heritage through story and narrative. To do this we are developing new solutions to the whole range of narrative construction, knowledge visualisation and display problems for museums. ","equipo":"","tema":"Several-country consortium"},"geometry":{"type":"Point","coordinates":[-6.2602732,53.3497645]}},{"type":"Feature","properties":{"nombre":"UCL Centre for Digital Humanities","url":"http://www.ucl.ac.uk/dh/","origen":"London, UK","idioma":"","licencia":"","tipo_proyecto":"Lots of projects happening! see http://www.ucl.ac.uk/dh/projects","equipo":"UCLDH ","tema":"UK"},"geometry":{"type":"Point","coordinates":[-0.1276474,51.5073219]}},{"type":"Feature","properties":{"nombre":"digilibLT - digital library of late-latin texts","url":"http://www.digiliblt.unipmn.it","origen":"vercelli, italy","idioma":"","licencia":"","tipo_proyecto":"digital library of late latin texts to extend the PHI cdrom 5.3 collection which adopts CC license and allows download in multiple formats","equipo":"maurizio lana, raffaella tabacco - department of humanities, university of piemonte orientale","tema":"ancient europe mediterranean area"},"geometry":{"type":"Point","coordinates":[8.346283678327271,45.55538265]}},{"type":"Feature","properties":{"nombre":"Biblioteca Entre dos Siglos","url":"http://www.ucm.es/info/leethi","origen":"Madrid, Spain","idioma":"","licencia":"","tipo_proyecto":"Leethi means European LIteratures from Text to Hypermedia. It is a research group at Complutense University in Madrid, working on  literary  reading and writing on screen. We have developed our own collaborative annotation tool for digitized texts and our Virtual Library on  forgotten authors  in-between (19th-20th and 20th-21th centuries)","equipo":"LEETHI Group","tema":"Europe"},"geometry":{"type":"Point","coordinates":[-3.7035825,40.4167047]}},{"type":"Feature","properties":{"nombre":"Musisque Deoque","url":"http://www.mqdq.it/mqdq/","origen":"Venice, Italy","idioma":"","licencia":"","tipo_proyecto":"The “Musisque Deoque. A digital archive of Latin poetry” aims to create a singular Latin poetry’s database, supplemented and updated with critical apparatus and exegetical equipments. ","equipo":"","tema":"Latin poetry"},"geometry":{"type":"Point","coordinates":[12.3345898,45.4371908]}},{"type":"Feature","properties":{"nombre":"Pede Certo","url":"http://www.pedecerto.eu","origen":"Udine, Italy","idioma":"","licencia":"","tipo_proyecto":"Pede Certo is a new digital tool for the automatic metrical annotation of Latin hexameters and pentameters. ","equipo":"","tema":"Latin Poetry"},"geometry":{"type":"Point","coordinates":[13.2358377,46.0634632]}},{"type":"Feature","properties":{"nombre":"Portal Andrés Poza","url":"http://andresdepoza.com","origen":"Bilbao, Spain","idioma":"","licencia":"","tipo_proyecto":"This site provides access to legal, historical and literary Italian documents that exist in multiple versions as well as their translations into Spanish. ","equipo":"Seminario Alfonso Erigoyen","tema":"Translations/versioning"},"geometry":{"type":"Point","coordinates":[-2.9350039,43.2630018]}},{"type":"Feature","properties":{"nombre":"The European Library ","url":"http://theeuropeanlibrary.org","origen":"The Hague, Netherlands","idioma":"","licencia":"","tipo_proyecto":"","equipo":"","tema":"Aggregating data from Europe's libraries"},"geometry":{"type":"Point","coordinates":[4.3113461,52.0799838]}},{"type":"Feature","properties":{"nombre":"Bantry Estate Papers Archive","url":"http://booleweb.ucc.ie/","origen":"Cork, Ireland","idioma":"","licencia":"","tipo_proyecto":"PhD research project to introduce the Bantry Estate Papers to a wide field of users through the sketchbooks, ephemera and personal papers of Richard White, the 2nd Earl of Bantry, Lord Berehaven.  Dissemination through augmentation.","equipo":"","tema":"Bantry Bay/Bantry House/West Cork"},"geometry":{"type":"Point","coordinates":[-8.4654674,51.897077]}},{"type":"Feature","properties":{"nombre":"Burckhardtsource","url":"http://burckhardtsource.org/","origen":"Pisa, Italy","idioma":"","licencia":"","tipo_proyecto":"The platform hosts the semantic critical edition of the letters written to Jacob Burckhardt, reconstructing in open access one of the most important European correspondences of the 19th century. ","equipo":"Burckhardtsource team, Scuola Normale Superiore, Net7","tema":"European correspondence"},"geometry":{"type":"Point","coordinates":[10.4018624,43.7159395]}},{"type":"Feature","properties":{"nombre":"AUB Digitized Arabic Manuscripts","url":"http://ddc.aub.edu.lb/projects/jafet/manuscripts/","origen":"Beirut, Lebanon","idioma":"","licencia":"","tipo_proyecto":"This ongoing manuscript digitization project contains works in Arabic from the medieval period to contemporary times.","equipo":"","tema":"manuscripts; digitization"},"geometry":{"type":"Point","coordinates":[35.47843,33.8959203]}},{"type":"Feature","properties":{"nombre":"Bibliotheca Alexandrina","url":"http://bib-alex.com/","origen":"Alexandria, Egypt","idioma":"","licencia":"","tipo_proyecto":"More than 20000 Arabic books available in pdf.","equipo":"","tema":""},"geometry":{"type":"Point","coordinates":[29.894378,31.199004]}},{"type":"Feature","properties":{"nombre":"Sharing Ancient Wisdoms ","url":"http://www.ancientwisdoms.ac.uk/","origen":"London, Halle, Vienna","idioma":"","licencia":"","tipo_proyecto":"SAWs \"present and analyse the tradition of wisdom literatures in Greek and Arabic\" particularly \"those which collected moral and social advice.\" D.R.: the institutional base is a European cooperation (Sweden, Britain and Austria), while the texts are circulating in Eurasia ","equipo":"King's College London","tema":"Greek and Arabic wisdom literature; encoded text; RDF; linked data"},"geometry":{"type":"Point","coordinates":[-0.1276474,51.5073219]}},{"type":"Feature","properties":{"nombre":"Corpus Coranicum","url":"http://www.corpuscoranicum.de/","origen":"Berlin","idioma":"","licencia":"","tipo_proyecto":"","equipo":"Berlin-Brandenburgische Akademie der Wissenschaften","tema":"Qur'an"},"geometry":{"type":"Point","coordinates":[13.3888599,52.5170365]}},{"type":"Feature","properties":{"nombre":"The Global Egyptian Museum","url":"http://www.globalegyptianmuseum.org/","origen":"Cairo","idioma":"","licencia":"","tipo_proyecto":"","equipo":"Directed by Dirk van der Plas and Mohamed Saleh Supported by\r\nComité Internal pour l'Egyptologie (CIPEG)\r\nCommittee of the International Council of Museums (ICOM-UNESCO)","tema":"At a rough estimate, over 2 million objects from ancient Egypt are kept in about 850 public collections, dispersed over 69 countries around the world. This website aims to collect them into a global virtual museum, which can be visited at any time, from any place"},"geometry":{"type":"Point","coordinates":[31.2357257,30.0443879]}},{"type":"Feature","properties":{"nombre":"Nakba Archive","url":"http://www.nakba-archive.org/","origen":"Palestine, Lebanon, US","idioma":"","licencia":"","tipo_proyecto":"Videos appear to currently be password protected. ","equipo":"Diana Allan; Mahmoud Zeidan","tema":"Oral history project consisting of interviews with first generation Palestinian refugees living in Lebanon, survivors of the 1948 Nakba. Over 650 interviews were conducted; a selection of these are available online. "},"geometry":{"type":"Point","coordinates":[35.2087537,31.9006666]}},{"type":"Feature","properties":{"nombre":"Agha Bozorg","url":"http://www.aghabozorg.ir/search.aspx","origen":"Iran","idioma":"","licencia":"","tipo_proyecto":"","equipo":"","tema":"Iranian database of digital surrogates of manuscripts in Arabic script"},"geometry":{"type":"Point","coordinates":[54.5643516,32.6475314]}},{"type":"Feature","properties":{"nombre":"AMIR","url":"http://amirmideast.blogspot.com/","origen":"Columbia University Libraries","idioma":"","licencia":"","tipo_proyecto":"","equipo":"Peter Magierski; Charles Jones","tema":"blog to assemble and distribute information on open access material relating to the Middle East"},"geometry":{"type":"Point","coordinates":[-73.96318600494232,40.80637355]}},{"type":"Feature","properties":{"nombre":"AWOL","url":"http://ancientworldonline.blogspot.com/","origen":"ISAW Library, NYU","idioma":"","licencia":"","tipo_proyecto":"","equipo":"Charles Jones","tema":"blog to assemble and distribute information on open access material relating to the Ancient World, including the Ancient Near East"},"geometry":{"type":"Point","coordinates":[121.04607254510746,14.62915625]}},{"type":"Feature","properties":{"nombre":"Yousef Jameel Online Centre","url":"http://jameelcentre.ashmolean.org/","origen":"Ashmolean Museum, Oxford, UK","idioma":"","licencia":"","tipo_proyecto":"","equipo":"","tema":"making the Eastern Art collections at the Ashmolean Museum available online"},"geometry":{"type":"Point","coordinates":[-1.26025778822966,51.755499]}},{"type":"Feature","properties":{"nombre":"Afghanistan Digital Library","url":"http://afghanistandl.nyu.edu/","origen":"NYU Libraries","idioma":"","licencia":"","tipo_proyecto":"","equipo":"","tema":"The Afghanistan Digital Library will retrieve and restore works published in Afghanistan between 1870 and 1930; the long-term objective is to collect, catalogue, digitize and provide access to as many of this period's publications as possible. "},"geometry":{"type":"Point","coordinates":[-74.4535819959469,40.5233188]}},{"type":"Feature","properties":{"nombre":"Golha","url":"http://www.golha.co.uk/","origen":"Music Department, SOAS, University of London","idioma":"","licencia":"","tipo_proyecto":"This project is beautiful, truly - A.G.","equipo":"Jane Lewisohn","tema":"archive of the BBC-Persian program \"Golha\" broadcast between 1957 and 1979"},"geometry":{"type":"Point","coordinates":[-1.2562992739137457,51.76937705]}},{"type":"Feature","properties":{"nombre":"Women's World in Qajar Iran","url":"http://www.qajarwomen.org/","origen":"Harvard University","idioma":"","licencia":"","tipo_proyecto":"","equipo":"Afsaneh Najmabadi","tema":"Explore the lives of women during the Qajar era (1796-1925) through a wide array of materials from private family holdings and participating institutions. Women’s Worlds in Qajar Iran provides bilingual access to thousands of personal papers, manuscripts, photographs, publications, everyday objects, works of art and audio materials, making it a unique online resource for social and cultural histories of the Qajar world"},"geometry":{"type":"Point","coordinates":[-71.12678237443698,42.36790855]}},{"type":"Feature","properties":{"nombre":"Islamic Manuscripts","url":"http://art.thewalters.org/browse/category/islamic-manuscripts/","origen":"Walters Art Museum Baltimore","idioma":"","licencia":"","tipo_proyecto":"many of pages of these digitized manuscripts are also available for download on the Walters FlickR pagehttp://www.flickr.com/photos/medmss/sets/","equipo":"","tema":"The Walters’ collection of Islamic Manuscripts showcases masterpieces of illuminated and illustrated manuscripts."},"geometry":{"type":"Point","coordinates":[-76.6161063,39.2965698]}},{"type":"Feature","properties":{"nombre":"Islamic Manuscripts","url":"http://www.islamicmanuscripts.info/index.html","origen":"Leiden, Netherlands","idioma":"","licencia":"","tipo_proyecto":"an amazing resource as a digital storage site, as Witkam has assembled many things that are otherwise difficult to get hold off; includes drafts of his presentations and his work in progress","equipo":"Jan Just Witkam","tema":"Witkam is the retired professor of Islamic codicology at Leiden University; this is his public cloud storage for Islamic MSS related resources so that he can work while on the road"},"geometry":{"type":"Point","coordinates":[4.4811088666204295,52.1518157]}},{"type":"Feature","properties":{"nombre":"Wellcome Arabic Manuscripts Online","url":"http://wamcp.bibalex.org/","origen":"Wellcome Library London, Bibliotheca Alexandrina, and the Department of Digital Humanities of King's College London","idioma":"","licencia":"","tipo_proyecto":"","equipo":"","tema":""},"geometry":{"type":"Point","coordinates":[-0.1339659,51.5259772]}},{"type":"Feature","properties":{"nombre":"The Friedberg Genizah Project","url":"http://www.genizah.org/","origen":"Egypt, Israel","idioma":"","licencia":"","tipo_proyecto":"The collection now contains nearly all of the extant fragments.  Photography is now done on a sort of \"green screen,\" so the computer is able to piece together fragment digitally.","equipo":"","tema":"The Genizah fragments"},"geometry":{"type":"Point","coordinates":[29.2675469,26.2540493]}},{"type":"Feature","properties":{"nombre":"Fondo Paul Kahle","url":"http://www.paulkahle.unito.it/index.php/About/structure_aims?lang=en","origen":"Universita degli studi di Torino, Italy","idioma":"","licencia":"","tipo_proyecto":"Kahle was a Protestant pastor who worked on Arabic and Hebrew sources,  focusing on the Hebrew Bible; a theology professor in Bonn, he lost his professorship and lived as a political refugee in Britain from 1939 until 1945; this archives and library are now in Italy ","equipo":"Bruno Chiesa and Maria Luisa Russo","tema":"inventorying, re-ordering and preservation of archive of Paul Kahle (1875-1964); provision of access to archive for scholars through creation of an online database, with images of the most significant parts of the archive."},"geometry":{"type":"Point","coordinates":[7.699437189967615,45.07338235]}},{"type":"Feature","properties":{"nombre":"RELMIN","url":"http://www.cn-telma.fr/relmin/index/","origen":"Université de Nantes","idioma":"","licencia":"","tipo_proyecto":"","equipo":"John Tolan ","tema":"Digital archive of medieval texts in languages such as Latin, Arabic, Greek and Hebrew that is created with a five-years research project about the legal status of religious minorities in the Euro-Mediterranean World (5th-15th centuries); the overall project is funded by the Ideas Program\r\n of the European Research Council’s Seventh Framework Program from 2010 \r\nuntil 2015. "},"geometry":{"type":"Point","coordinates":[-1.5478969928398376,47.2490787]}},{"type":"Feature","properties":{"nombre":"British Library/Qatar Foundation Partnership","url":"http://www.bl.uk/qatar/","origen":"British Library","idioma":"","licencia":"","tipo_proyecto":"","equipo":"","tema":"The British Library is working in partnership with Qatar Foundation to digitise half a million pages of archival and manuscript material relating to the Gulf, creating an online portal that will be available around the world."},"geometry":{"type":"Point","coordinates":[-0.1277198444839778,51.5298765]}},{"type":"Feature","properties":{"nombre":"Manar al-Athar","url":"http://www.manar-al-athar.ox.ac.uk/","origen":"University of Oxford","idioma":"","licencia":"","tipo_proyecto":"Started as an archeological site, but aims to be truly bi-lingual in Arabic and English","equipo":"","tema":"The Manar al-Athar website aims to provide high resolution, searchable images for teaching, research, and publication. These images of archaeological sites, with buildings and art, will cover the areas of the former Roman empire which later came under Islamic rule, such as Syro-Palestine/the Levant, Arabia, Egypt, North Africa and Spain. The chronological range is from Alexander the Great (i.e., from about 300 BC) through, the Islamic period to the present. It is the first website of its kind providing such material labelled jointly in both Arabic and English. We will also be publishing related material, both online and on paper, in English and Arabic."},"geometry":{"type":"Point","coordinates":[-1.2550636261836865,51.75875945]}},{"type":"Feature","properties":{"nombre":"Bulgarian Dialectology as Living Tradition","url":"http://bulgariandialectology.org","origen":"Sofia, Bulgaria / Berkeley, USA","idioma":"","licencia":"","tipo_proyecto":"","equipo":"","tema":""},"geometry":{"type":"Point","coordinates":[48.2562163,-15.2538402]}},{"type":"Feature","properties":{"nombre":"Various medieval projects at Sofia University","url":"http://www.slav.uni-sofia.bg/index.php/departments/cyrillomethodian-studies/441-andrej-bojadzhiev#1-5","origen":"Sofia, Bulgaria","idioma":"","licencia":"","tipo_proyecto":"","equipo":"","tema":""},"geometry":{"type":"Point","coordinates":[23.3221789,42.6978634]}},{"type":"Feature","properties":{"nombre":"","url":"http://manuscripts.ru/","origen":"Izhevsk, Russia","idioma":"","licencia":"","tipo_proyecto":"(& other projects by Viktor Baranov) https://sites.google.com/site/personalsiteofvictorabaranov/proekty","equipo":"","tema":""},"geometry":{"type":"Point","coordinates":[53.197730742455306,56.86051745]}},{"type":"Feature","properties":{"nombre":"Vaibakogu","url":"http://vaibad.erm.ee/index.php","origen":"Estonia","idioma":"","licencia":"","tipo_proyecto":"","equipo":"","tema":""},"geometry":{"type":"Point","coordinates":[25.3319078,58.7523778]}},{"type":"Feature","properties":{"nombre":"Digital Text Repository for Older Estonian Literature EEVA","url":"http://www.utlib.ee/ekollekt/eeva/index.php?lang=en&do=index","origen":"Estonia","idioma":"","licencia":"","tipo_proyecto":"","equipo":"","tema":""},"geometry":{"type":"Point","coordinates":[25.3319078,58.7523778]}},{"type":"Feature","properties":{"nombre":"eZISS","url":"http://nl.ijs.si/e-zrc/index-en.html","origen":"Slovenia","idioma":"","licencia":"","tipo_proyecto":"A small series of scholarly editions; texts span from medieval to modern; typically contain facsimile, diplomatic transcr., edited text, parallel views, and apparatus; all in open access, downloadable (including facsimiles and TEI source). ","equipo":"Research Centre of Slovenian Academy of Sciences and Arts","tema":"Slovenian literature"},"geometry":{"type":"Point","coordinates":[14.4808369,45.8133113]}},{"type":"Feature","properties":{"nombre":"noSkE Slovene corpora","url":"http://nl.ijs.si/noske/index-en.html","origen":"Slovenia","idioma":"","licencia":"","tipo_proyecto":"A collectdion of mostly Slovene language corpora made available via the noSketchEngine","equipo":"Jožef Stefan Institute","tema":"Slovene language corpora"},"geometry":{"type":"Point","coordinates":[14.4808369,45.8133113]}},{"type":"Feature","properties":{"nombre":"DIA - Digitális Irodalmi Akadémia [Digital Academy of Literature]","url":"http://dia.pim.hu","origen":"Hungary","idioma":"","licencia":"","tipo_proyecto":"contains only works of fiction by contemporary writers\r\ncollects copyrighted materials but offers free access; the participating authors get renumeration from the Hungarian government on a monthly basis. One new author is added each year.\r\neditor: Wernitzer Julianna, Dr. wernitzerj@pim.hu","equipo":"Petőfi Irodalmi Múzeum [Museum of Literature] ","tema":"Hungarian contemporary fiction"},"geometry":{"type":"Point","coordinates":[19.5060937,47.1817585]}},{"type":"Feature","properties":{"nombre":"Villanyspenót – The Handbook of Hungarian Literary History","url":"http://www.villanyspenot.hu/","origen":"Hungary","idioma":"","licencia":"","tipo_proyecto":"[it is called \"Electric Spinach\" because the old (printed) „Handbook of Hungarian Literary History” (in 6 vols) was bound in spinach-green and commonly referred to as such, and its digital successor inherited both the name and the reputation.]","equipo":"Eötvös Loránd Tudományegyetem;edited by Prof. Iván Horváth (ELTE) ivan@elte.hu","tema":"Bibliography of Hungarian Historical Texts"},"geometry":{"type":"Point","coordinates":[19.5060937,47.1817585]}},{"type":"Feature","properties":{"nombre":"All of Tolstoy in one click","url":"http://www.readingtolstoy.ru/","origen":"Moscow, Russia","idioma":"","licencia":"","tipo_proyecto":"","equipo":"","tema":""},"geometry":{"type":"Point","coordinates":[37.6174943,55.7504461]}},{"type":"Feature","properties":{"nombre":"Croatiae auctores Latini","url":"http://www.ffzg.unizg.hr/klafil/croala/","origen":"Zagreb, Croatia","idioma":"","licencia":"","tipo_proyecto":"C. 5 million words of Latin texts written by Croatian authors, or in Croatian regions, between 976 and 1984. TEI XML texts are served by PhiloLogic system, and also freely available (CC-BY) for further experiments and aggregation.","equipo":"Department of classical philology, Faculty of Humanities and Social sciences, University of Zagreb","tema":"Croatian Latin literature"},"geometry":{"type":"Point","coordinates":[15.9771774,45.8131847]}},{"type":"Feature","properties":{"nombre":"Croatica et Tyrolensia","url":"http://www.ffzg.unizg.hr/klafil/dokuwiki/doku.php/z:croatica-et-tyrolensia","origen":"Zagreb, Croatia","idioma":"","licencia":"","tipo_proyecto":"An ongoing two-year project funded mainly by the UKF fund (<http://www.ukf.hr/>); Croatian and Tyrolean neo-Latin literary corpora are to be compared along the following three lines: a) bibliographically, analysing quantitative and qualitative similarities of genres and periods; b) textually, by discovering common themes and forms and interpreting differences; c) methodologically, by reflecting on ways to compare national and regional variants of a supranational literary and linguistic standard.","equipo":"Faculty of Humanities and Social Sciences, University of Zagreb - Ludwig Boltzmann Institute for Neo-Latin Studies, Innsbruck - Juraj Dobrila University of Pula - Split Literary Circle / Marulianum","tema":"A digital comparison of Croatian and Tyrolean neo-Latin literature"},"geometry":{"type":"Point","coordinates":[15.9771774,45.8131847]}},{"type":"Feature","properties":{"nombre":"Voyages","url":"https://www.slavevoyages.org/","origen":"Emory University","idioma":"","licencia":"","tipo_proyecto":"The Trans-Atlantic Slave Trade Database is the culmination of several decades of independent and collaborative research by scholars drawing upon data in libraries and archives around the Atlantic world.","equipo":"","tema":"Black Atlantic"},"geometry":{"type":"Point","coordinates":[-84.32778960627682,33.795867650000005]}},{"type":"Feature","properties":{"nombre":"The Zamani Project","url":"http://en.wikipedia.org/wiki/Zamani_Project","origen":"Cape Town, South Africa","idioma":"","licencia":"","tipo_proyecto":"Zamani is a research group at the University of Cape Town,\r\n they acquire, model, present and manage spatial and other data of \r\ncultural heritage sites. The present focus of the Zamani project is \r\nAfrica, with the principal objective of developing “The African Cultural\r\n Heritage Sites and Landscapes Database”. ","equipo":"","tema":""},"geometry":{"type":"Point","coordinates":[18.417396,-33.928992]}},{"type":"Feature","properties":{"nombre":"West African Manuscript Project","url":"http://westafricanmanuscripts.org/","origen":"University of Illinois, Northwestern, Mauritania, Mali","idioma":"","licencia":"","tipo_proyecto":"AMMS is a bi-lingual database that was developed at the University of Illinois in the late 1980s to describe a collection of Arabic manuscripts in southern Mauritania (Boutilimit). It subsequently has been used to catalogue seven other West African collections including the manuscript libraries at the Institut Mauritanien de Recherche Scientifique, Northwestern University, and the Centre Ahmad Baba in Timbuctu. ","equipo":"","tema":"African Arabic Archive, digitalization"},"geometry":{"type":"Point","coordinates":[-88.23131272434611,40.10056605]}},{"type":"Feature","properties":{"nombre":"Soweto GIS Project","url":"http://www.dhinitiative.org/projects/mappingsoweto/","origen":"Hamilton College","idioma":"","licencia":"","tipo_proyecto":"The primary objective of the Soweto Historical GIS Project (SHGIS) is to build a multi-layered historical geographic information system that explores the social, economic and political dimensions of urban development under South African apartheid regimes (1904/1948-1994) in Johannesburg’s all-black township of Soweto. Soweto (an acronym for the South Western Towsnhips), a creation of state power, was developed to house low-wage workers and to segregate black South Africans from white. The application of geographic methodologies to the study of the anti-apartheid movement reveals the complex spatial dimensions of violence, resistance, and freedom. The project examines the micro-geography of resistance and the layering of meaning and action between the apartheid state and township residents across its built form.","equipo":"Angel Nieves","tema":"South Africa"},"geometry":{"type":"Point","coordinates":[-75.40689907682119,43.0537974]}},{"type":"Feature","properties":{"nombre":"Practicing development","url":"http://blog.inasp.info/author/mduine/","origen":"Africa","idioma":"","licencia":"","tipo_proyecto":"Practising Development aims to explore ideas, discuss issues and share learning around research, information and development. Managed by INASP, the views and opinions expressed on Practising Development are those of the individual authors and do not represent those of the organisation. <--Might have ideas.","equipo":"INASP","tema":"Research Production"},"geometry":{"type":"Point","coordinates":[17.7578122,11.5024338]}},{"type":"Feature","properties":{"nombre":"Digital Humanities and Heritage in India","url":"http://wp.lancs.ac.uk/dhindia/","origen":"India, UK","idioma":"","licencia":"","tipo_proyecto":"This Research Network, funded by the Arts and Humanities Research Council, UK, brings together scholars and practitioners interested in the potential of digital technologies in scholarship, archives and heritage. The aim of the network is to explore the particular potential and challenges presented by devising research projects using digital datasources, digitisation and geospatial methodologies.","equipo":"DH Lancaster","tema":"India"},"geometry":{"type":"Point","coordinates":[0.7297814,52.0412922]}},{"type":"Feature","properties":{"nombre":"SARIT","url":"http://sarit.indology.info/","origen":"Vienna","idioma":"","licencia":"","tipo_proyecto":"SARIT (``Search and Retrieval of Indic Texts\") consists of a library of Indic texts.  Work on this library is done in the framework of a github organisation (https://github.com/sarit/).  The website https://sarit.indology.info is not in sync with the library anymore, due to technical issues.  A new HTML presentation is in the works.","equipo":"https://github.com/sarit/","tema":"India"},"geometry":{"type":"Point","coordinates":[16.3725042,48.2083537]}},{"type":"Feature","properties":{"nombre":"A series of International Sanskrit Computational Linguistics Symposium","url":"https://sites.google.com/site/5isclc2013/Home","origen":"Bombay, India","idioma":"","licencia":"","tipo_proyecto":"The papers in this conference were pubslished from Springer.","equipo":"IIT Bombay","tema":"India"},"geometry":{"type":"Point","coordinates":[72.8773928,19.0759899]}},{"type":"Feature","properties":{"nombre":"Bichitra: Online Tagore Variorum","url":"http://bichitra.jdvu.ac.in/index.php","origen":"Jadavpur University, India","idioma":"","licencia":"","tipo_proyecto":"","equipo":"School of Cultural Texts and Records","tema":"India"},"geometry":{"type":"Point","coordinates":[88.4131019353334,22.5611537]}},{"type":"Feature","properties":{"nombre":"","url":"http://sarai.net/projects/","origen":"Centre for the Study of Developing Societies, Delhi","idioma":"","licencia":"","tipo_proyecto":"","equipo":"Sarai","tema":"India"},"geometry":{"type":"Point","coordinates":[77.2182670894147,28.67779445]}},{"type":"Feature","properties":{"nombre":"The Oral History Project","url":"http://www.citizensarchive.org/","origen":"Karachi","idioma":"","licencia":"","tipo_proyecto":"","equipo":"The Citizens Archive of Pakistan","tema":"Pakistan"},"geometry":{"type":"Point","coordinates":[67.0207055,24.8546842]}},{"type":"Feature","properties":{"nombre":"Indian Memory Project","url":"http://www.indianmemoryproject.com/","origen":"Mumbai, Maharastra","idioma":"","licencia":"","tipo_proyecto":"","equipo":"Anusha Yadav","tema":"India"},"geometry":{"type":"Point","coordinates":[72.8773928,19.0759899]}},{"type":"Feature","properties":{"nombre":"Rekhta","url":"http://rekhta.org/","origen":"Noida","idioma":"","licencia":"","tipo_proyecto":"","equipo":"Rekhta Foundation","tema":"India"},"geometry":{"type":"Point","coordinates":[77.3031364,28.5811076]}},{"type":"Feature","properties":{"nombre":"Panjab Digital Library","url":"http://www.panjabdigilib.org/webuser/searches/mainpage.jsp","origen":"Chandigarh, Punjab","idioma":"","licencia":"","tipo_proyecto":"","equipo":"Panjab Digital Library","tema":"Subcontinent"},"geometry":{"type":"Point","coordinates":[76.7447786,30.722908]}},{"type":"Feature","properties":{"nombre":"Indian Subcontinent Partition Documentation","url":"http://www.ispad1947.org/","origen":"New York","idioma":"","licencia":"","tipo_proyecto":"","equipo":"Sachi G. Dastidar","tema":"Subcontinent"},"geometry":{"type":"Point","coordinates":[-74.0060152,40.7127281]}},{"type":"Feature","properties":{"nombre":"The 1947 Partition Archive","url":"http://www.1947partitionarchive.org/","origen":"California","idioma":"","licencia":"","tipo_proyecto":"","equipo":"Guneeta Singh Bhalla","tema":"Subcontinent"},"geometry":{"type":"Point","coordinates":[-118.755997,36.7014631]}},{"type":"Feature","properties":{"nombre":"Digitized Buddhist Manuscripts","url":"http://web.archive.org/web/20120502114201/http://diri-au.org/pages/?page_id=516","origen":"Bangkok, Thailand","idioma":"","licencia":"","tipo_proyecto":"The original site is currently being updated: http://www.diri-au.org/pages/","equipo":"Center for Documentation of Cultural and Natural Heritege (CULTNAT)","tema":""},"geometry":{"type":"Point","coordinates":[100.4934734,13.7525438]}},{"type":"Feature","properties":{"nombre":"Digitizing \"Chinese Englishmen\"","url":"http://chineseenglishmen.adelinekoh.org/","origen":"New Jersey, USA","idioma":"","licencia":"","tipo_proyecto":"","equipo":"","tema":"Singapore"},"geometry":{"type":"Point","coordinates":[-74.4041622,40.0757384]}},{"type":"Feature","properties":{"nombre":"History of Ayutthaya","url":"http://www.ayutthaya-history.com/index.html","origen":"Thailand","idioma":"","licencia":"","tipo_proyecto":"","equipo":"","tema":"Ayutthaya"},"geometry":{"type":"Point","coordinates":[100.83273,14.8971921]}},{"type":"Feature","properties":{"nombre":"Doing Our Bit, Mosman 1914-1918","url":"http://mosman1914-1918.net/","origen":"Mosman, NSW","idioma":"","licencia":"","tipo_proyecto":"A DH-informed effort by a local council to commemorate the centennial of WW1 by collecting, digitizing, transcribing, and linking material from the Mosman community, about the Mosman community and their experience of and memory of the Great War.  (Tim Sherrat is involved, and I host the transcription part of their efforts, so COI-alert.)","equipo":"Mosman Library, New South Wales Government","tema":"Australia, WW1"},"geometry":{"type":"Point","coordinates":[151.2447663,-33.8301355]}},{"type":"Feature","properties":{"nombre":"Migration Memories","url":"http://rsh.anu.edu.au/migrationmemories/index.htm","origen":"Canberra, ACT, Australia","idioma":"","licencia":"","tipo_proyecto":"Migration stories from 2 areas in Australia.  Includes research methodologies, papers, exhibit development process, maps...","equipo":"ANU, Australian Research Council, National Museum of Australia Canberra","tema":"Australia"},"geometry":{"type":"Point","coordinates":[149.1012676,-35.2975906]}},{"type":"Feature","properties":{"nombre":"PARADISEC","url":"http://www.paradisec.org.au/home.html","origen":"Sydney, New South Wales, Australia","idioma":"","licencia":"","tipo_proyecto":"\"The Pacific and Regional Archive for Digital Sources in Endangered \r\nCultures offers a facility for digital conservation and access to \r\nendangered materials from all over the world. Our research group has \r\ndeveloped models to ensure that the archive can provide access to \r\ninterested communities and conforms to emerging international standards for digital archiving. A primary motivation for this project is making field recordings available to those recorded and their descendants.\"","equipo":" University of Sydney, University of Melbourne,  Australian National University","tema":"International"},"geometry":{"type":"Point","coordinates":[151.2082848,-33.8698439]}},{"type":"Feature","properties":{"nombre":"Trove","url":"http://trove.nla.gov.au/","origen":"Canberra, ACT, Australia","idioma":"","licencia":"","tipo_proyecto":"Includes digitized newspapers, featuring very successful crowd-correcting of some pretty terrible OCR, in addition to books, pictures, journals, data sets...","equipo":"National Library of Australia","tema":"Australia"},"geometry":{"type":"Point","coordinates":[149.1012676,-35.2975906]}},{"type":"Feature","properties":{"nombre":"Founders and Survivors","url":"http://foundersandsurvivors.org//","origen":"Australia","idioma":"","licencia":"","tipo_proyecto":"\"Founders & Survivors is a partnership between historians, \r\ngenealogists, demographers and population health researchers. It seeks to record and study the founding population of 73,000 men women and children who were transported to Tasmania. Many survived their convict experience and went on to help build a new society.\"","equipo":"historians, genealogists, demographers and population health researchers...funded by ANU, Flinders Univ, U Tasmmania, U Melbourne, Archives Office of Tasmania, National Archives of Aus, Aus Research Council, Institute for a Broadband Enabled Society","tema":"Tasmania, Australia"},"geometry":{"type":"Point","coordinates":[134.755,-24.7761086]}},{"type":"Feature","properties":{"nombre":"Digital Renaissance Editions","url":"http://digitalrenaissance.uvic.ca/","origen":"Australia, Canada","idioma":"","licencia":"","tipo_proyecto":"The aim of the Digital Renaissance Editions is to publish multimedia scholarly editions of early English drama and make these freely available online. The project extends the successful platform developed by the Internet Shakespeare Editions at the University of Victoria.","equipo":"The University of Western Australia, University of Victoria (Canada)","tema":"United Kingdom"},"geometry":{"type":"Point","coordinates":[-79.18316893922841,43.8224793]}},{"type":"Feature","properties":{"nombre":"Lost Plays Database","url":"http://lostplays.org/","origen":"Australia","idioma":"","licencia":"","tipo_proyecto":"The Lost Plays Database is a wiki-style forum for scholars to share information about lost plays in England, 1570-1642. Its purpose is to add lost plays to scholarly discussions of early modern theatrical activity.","equipo":"The University of Melbourne, University of Arkansas at Little Rock","tema":"United Kingdom"},"geometry":{"type":"Point","coordinates":[134.755,-24.7761086]}},{"type":"Feature","properties":{"nombre":"Intelligent Archive","url":"http://www.newcastle.edu.au/research-and-innovation/centre/education-arts/cllc/intelligent-archive","origen":"Australia","idioma":"","licencia":"","tipo_proyecto":"Intelligent Archive is a Java application developed for text analysis by the Centre for Literary and Linguistic Computing (CLLC) at the University of Newcastle.","equipo":"The University of Newcastle","tema":"Worldwide"},"geometry":{"type":"Point","coordinates":[134.755,-24.7761086]}},{"type":"Feature","properties":{"nombre":"NZETC (New Zealand Electronic Text Collection)","url":"http://nzetc.victoria.ac.nz/","origen":"New Zealand","idioma":"","licencia":"","tipo_proyecto":"open access to New Zealand and Pacific Island texts and materials","equipo":"Victoria University of Wellington","tema":"New Zealand"},"geometry":{"type":"Point","coordinates":[172.8344077,-41.5000831]}},{"type":"Feature","properties":{"nombre":"DigitalNZ ","url":"http://digitalnz.org.nz/","origen":"New Zealand","idioma":"","licencia":"","tipo_proyecto":"discovery tool of NZ digital content, includes tools to create search engine, help for digitizing collections. etc.","equipo":"National Library of New Zealand and 120 partners","tema":"New Zealand"},"geometry":{"type":"Point","coordinates":[172.8344077,-41.5000831]}},{"type":"Feature","properties":{"nombre":"UC CEISMIC Canterbury Earthquakes Digital Archive","url":"http://www.ceismic.org.nz","origen":"New Zealand","idioma":"","licencia":"","tipo_proyecto":"A federated archive of video, audio, documents and images related to the Canterbury earthquakes of 2010 and 2011.  Associated with the University of Canterbury Digital Humanities programme - dh.canterbury.ac.nz","equipo":"University of Canterbury and 10 NZ cultural heritage partners","tema":"Canterbury, New Zealand"},"geometry":{"type":"Point","coordinates":[172.8344077,-41.5000831]}},{"type":"Feature","properties":{"nombre":"Invisible Australians","url":"http://invisibleaustralians.org/","origen":"Australia","idioma":"","licencia":"","tipo_proyecto":"","equipo":"","tema":"Australia, History"},"geometry":{"type":"Point","coordinates":[134.755,-24.7761086]}},{"type":"Feature","properties":{"nombre":"Deepening Histories of Place","url":"http://www.deepeninghistories.anu.edu.au/","origen":"Australia","idioma":"","licencia":"","tipo_proyecto":"\"Deepening Histories of Place investigates the social and environmental links that create historical ‘highways’ of understanding, including song-lines, tracks, exploration, trade, pastoral and tourism routes. Our pilot studies are in Sydney-Blue Mountains, Central Australia and the Top End of the Northern Territory. A digital history project, we will develop innovative models for multi-vocal Indigenous and landscape-focused histories. Adopting a collaborative approach, we are researching histories of people and land with Indigenous custodians and community members, in strong partnership with parks, cultural and collections institutions. Our publications, audio-visual streaming and other history delivery strategies aim to enrich visitor understandings of internationally significant Australian landscapes.\"","equipo":"The Australian National University, University of Sydney, The University of Western Sydney and 7 Australian institutional partners.","tema":"Australia, Indigenous History"},"geometry":{"type":"Point","coordinates":[134.755,-24.7761086]}},{"type":"Feature","properties":{"nombre":"The French Book Trade in Enlightenment Europe","url":"http://fbtee.uws.edu.au/main/","origen":"United Kingdom, Australia","idioma":"","licencia":"","tipo_proyecto":"\"The French Book Trade in Enlightenment Europe (FBTEE) project uses database technology to map the trade of the Société Typographique de Neuchâtel (STN), a celebrated Swiss publishing house that operated between 1769 and 1794. As the STN sold the works of other publishers alongside its own editions, their archives can be considered a representative source for studying the history of the book trade and dissemination of ideas in the late Enlightenment.Using state of the art database, web interface and GIS technology, the project provides a user-friendly resource for use by scholars, teachers and students of French literature and history, book history, the Enlightenment and bibliography more generally.\"","equipo":"University of Leeds, Arts & Humanities Research Council (United Kingdom), University of Western Sydney","tema":"France"},"geometry":{"type":"Point","coordinates":[-4.0996679,53.1262615]}},{"type":"Feature","properties":{"nombre":"AustLit","url":"http://www.austlit.edu.au","origen":"Australia","idioma":"","licencia":"","tipo_proyecto":"\"AustLit aims to be the definitive virtual research environment and information resource for Australian literary, print, and narrative culture.\"","equipo":"The University of Queensland and multiple university partners","tema":"Australia, Literature"},"geometry":{"type":"Point","coordinates":[134.755,-24.7761086]}},{"type":"Feature","properties":{"nombre":"HuNI (Humanities Networked Infrastructure)","url":"http://huni.net.au/","origen":"Australia","idioma":"","licencia":"","tipo_proyecto":"\"HuNI (Humanities Networked Infrastructure) is a major new digital service for humanities researchers. Developed in Australia, with funding from the NeCTAR (National eResearch Collaborative Tools and Resources) program, it aggregates data from 28 different cultural datasets from a variety of disciplines, makes them available for external re-use through an API and as Linked Open Data, and provides a set of tools for researchers to work with the data.\"","equipo":"Multi-instutitional collaboration.","tema":"Australia"},"geometry":{"type":"Point","coordinates":[134.755,-24.7761086]}},{"type":"Feature","properties":{"nombre":"Digital Daisy Bates","url":"http://languages-linguistics.unimelb.edu.au/current-projects/digital-daisy-bates","origen":"Australia","idioma":"","licencia":"","tipo_proyecto":"\"In collaboration with the National Library of Australia (NLA), this project made accessible this extremely valuable collection of several hundred wordlists of Australian Indigenous languages, originally recorded by Daisy Bates in the early 1900s. The dataset has been constructed according to the TEI: P5 Guidelines, to embody both a facsimile of the original set of manuscripts and a structured dataset for complex research questions. Access to these historical records of Australian languages will benefit from the interdisciplinary cooperation of linguists and musicologists with technology experts and with the premier collecting agency the National Library of Australia.\"","equipo":"University of Melbourne","tema":"Australia"},"geometry":{"type":"Point","coordinates":[134.755,-24.7761086]}}]}